[
  {
    "name": "Unique Eco Recycle",
    "address": "26, RD Udyog Nagar, Nemawar Rd, behind Reliance petrol pump, Palda, Indore, Madhya Pradesh 452020",
    "latitude": "22.6840966",
    "longitude": "75.900251"
  },
  {
    "name": "Ecotech Recycling- E waste recycling Mumbai, E-Waste Recycling, E Waste Management in India",
    "address": "301, 3rd Floor, Bldg. No. 11, Commercial Tower, near Trade Center, Bandra Kurla Complex, Bandra East, Mumbai, Maharashtra 400051",
    "latitude": "19.0715657",
    "longitude": "72.866597"
  },
  {
    "name": "SWaCH E-Waste Collection Center",
    "address": "32/1, Dhankawadi Rd, Saragam Society 1, Anant Nagar, Kala Nagar, Dhankawadi, Pune, Maharashtra 411043",
    "latitude": "18.4654425",
    "longitude": "73.85191"
  },
  {
    "name": "Ecostar Recycling - E Waste Recycling Mumbai, Recycling Centre",
    "address": "1st Floor, Unit No 31-32, Khuraiya Estate, CST Road, opposite Ashok Apartments, Kolivery Village, Kunchi Kurve Nagar, Kalina, Santacruz East, Mumbai, Maharashtra 400098",
    "latitude": "19.0762539",
    "longitude": "72.868490"
  },
  {
    "name": "9STAR E-WASTE MANAGEMENT PRIVATE LIMITED",
    "address": "9 Krishna Park temanet and duplex, Prerak Foundation, Karodiya Rd, Gorwa, Vadodara, Gujarat 390016",
    "latitude": "22.3357985",
    "longitude": "73.152933"
  },
  {
    "name": "E Waste Recycle Hub",
    "address": "A-94/1, opposite CELEBRATION BANQUET, Block A, Wazirpur Industrial Area, Wazirpur, Delhi, 110052",
    "latitude": "28.6996761",
    "longitude": "77.156599"
  },
  {
    "name": "Recotech E waste Management",
    "address": "4V37+3GW, Naka, GIDC, Sachin, Surat, Gujarat",
    "latitude": "21.10273",
    "longitude": "72.861244"
  },
  {
    "name": "E Waste Samadhan",
    "address": "Plot No. 15, IT Park, Indore - Dhar Rd, Sinhasa, Indore, Madhya Pradesh 453112",
    "latitude": "22.6953038",
    "longitude": "75.787718"
  },
  {
    "name": "Ecoreco - E-Waste Recycling, Electronic Waste Recyclers",
    "address": "Metro Station, 422, The Summit Business Bay, Andheri - Kurla Rd, opp. Cinemax Theatre, near Western Express Highway, Andheri East, Mumbai, Maharashtra 400093', ",
    "latitude": "19.1162488",
    "longitude": "72.853830"
  },
  {
    "name": "Divine E waste solution - Waste management in Gujarat - Waste recycling",
    "address": "Plot No:818, New GIDC, Old GIDC, Katargam, Surat, Gujarat 395008',      ",
    "latitude": "21.2302366",
    "longitude": "72.83809"
  },
  {
    "name": "Let's Recycle - Nepra Resource Management",
    "address": "XHC3+67H, Beside Bharuch Enviro, Opp Eco Creative Infrastructure, Behind Torrent Power Substation, Pirana, Gyaspur, Ahmedabad, Gujarat 382405",
    "latitude": "22.9705723",
    "longitude": "72.550670"
  },
  {
    "name": "ANCUS INDIA REPROCESSING PVT LTD | E WASTE RECYCLING COMPANY",
    "address": "Unit no. 226, Shree Krishna Industrial CSL, on, Western Express Hwy, next to Dahisar Toll Naka, beside CNG Pump, Diamond Industrial Estate, Dahisar East, Mumbai, Maharashtra 400068",
    "latitude": "19.2563551",
    "longitude": "72.869217"
  },
  {
    "name": "GOGREENRECYCLING",
    "address": "A-8, Electronic Sadan, Mahape Midc Rd, Mahape, Navi Mumbai, Maharashtra 400701",
    "latitude": "19.112175",
    "longitude": "73.019843"
  },
  {
    "name": "Envirocare E-waste",
    "address": "Plot no 4, office no 3, Station Rd, opp. Hanjar hall, Jogeshwari West, Mumbai, Maharashtra 400102",
    "latitude": "19.1363964",
    "longitude": "72.845811"
  },
  {
    "name": "Mahavir electronic waste recycling store.",
    "address": "Mithaghar Rd, Jaihind Colony, Tata Colony, Mulund East, Mumbai, Maharashtra 400081",
    "latitude": "19.1605265",
    "longitude": "72.954639"
  },
  {
    "name": "Kohinoor E-waste Recycling Pvt. Ltd.",
    "address": "Narayan nager, 7/12, Nari Seva Sadan Rd, opp. Union Bank, Gurunanak Nagar, Narayan Nagar, Ghatkopar (W, Mumbai, Maharashtra 400086",
    "latitude": "19.0864962",
    "longitude": "72.891450"
  },
  {
    "name": "Right Ewaste Recycle Private Limited",
    "address": "Bldg no. C-01, 1st floor ,Antariksh Logidrome, S. No.40/2/C,40/3,Village - Aamne, Bhiwandi, Maharashtra 421302",
    "latitude": "19.3284214",
    "longitude": "73.15533"
  },
  {
    "name": "Advanced E-Waste Recycler",
    "address": "41, Sikh Mohalla M.G Road Near Kothari Market Square, Indore, Madhya Pradesh 452007",
    "latitude": "22.7204921",
    "longitude": "75.86037"
  },
  {
    "name": "Unicare Ewaste Recycler",
    "address": "9/1 , Raj industrial Estate, Jarod – Savli – Highway , Village -Karchiya Motipura, Gujarat 391520",
    "latitude": "22.4377168",
    "longitude": "73.331418"
  },
  {
    "name": "Eco Layer E-Waste Recycling",
    "address": "25, Gupta Compound, MIDC Road No.11, Nr.Maruti High School Andheri (E, Maharashtra 400093",
    "latitude": "19.1282552",
    "longitude": "72.865130"
  },
  {
    "name": "Sayma E-waste Pune",
    "address": "Shop No.6, Chandraprakash Apt, 252, Ganesh Peth Rd, Bodke Wada, New Nana Peth, Ganesh Peth, Pune, Maharashtra 411002",
    "latitude": "18.5155724",
    "longitude": "73.860784"
  },
  {
    "name": "Recycle.Green",
    "address": "104, Titanium City Centre Mall, 100 Feet Anand Nagar Rd, near Sachin Tower, Ahmedabad, Gujarat 380015",
    "latitude": "23.0126838",
    "longitude": "72.52046"
  },
  {
    "name": "The Recycling Company",
    "address": "D-402 Remi Bizcourt, Off Veera Desai Rd, opposite SUPREME CHAMBERS, near Yash Raj Studios, Andheri, Maharashtra 400053",
    "latitude": "19.1346215",
    "longitude": "72.83428"
  },
  {
    "name": "Lets Recycle - NEPRA INDORE MRF",
    "address": "MRF -1, Material Recovery Facility Trenching Ground, Nemawar Rd, Devguradia, Indore, Madhya Pradesh 452016",
    "latitude": "22.6793035",
    "longitude": "75.9206617"
  },
  {
    "name": "5RCYCLE Foundation",
    "address": "27 CD, Government Industrial Estate Charkop, Charkop, Charkop Industrial Estate, Kandivali West, Mumbai, Maharashtra 400067",
    "latitude": "19.2082837",
    "longitude": "72.823208"
  },
  {
    "name": "E Tech E waste Recycling",
    "address": "SY no. 1096, Nandigama, Telangana 509228",
    "latitude": "17.1058832",
    "longitude": "78.255018"
  },
  {
    "name": "Pure Earth Recyclers Pvt. Ltd | Enterprise ITAD | Govt. Authorized E-waste Recycler and Refurbisher.",
    "address": "Plot No, 167c, opp. JNTU, Addagutta Society, Western Hills, Jal Vayu Vihar, Kukatpally, Hyderabad, Telangana 500072",
    "latitude": "17.501406",
    "longitude": "78.394600"
  },
  {
    "name": "Regreen Recycling Pvt Ltd",
    "address": "Office No 123, 1st Floor, Bldg No.4, Commercial Complex, Rd Number 7, below Annex Hotel, M.I.D.C, Kondivita, Andheri(E, Mumbai, Maharashtra 400093",
    "latitude": "19.117791",
    "longitude": "72.869256"
  },
  {
    "name": "E-Waste Mart - Electronic Waste Recycling Company in Mumbai, India",
    "address": "GALA NO.36/ACTS NO. 362, PAHELWAN COMPOUND, 90 Feet Rd, Ashtavinayak CHS, Sathi D Souza Nagar, Saki Naka, Mumbai, Maharashtra 400072",
    "latitude": "19.0984203",
    "longitude": "72.885164"
  },
  {
    "name": "E-Incarnation Recycling Pvt. Ltd.",
    "address": "Unit No. 103, 1st Floor, BHAVESHWAR ARCADE, A Wing, Lal Bahadur Shastri Marg, near Shreyas Cinema Road, Nityanand Nagar, Ghatkopar West, Mumbai, Maharashtra 400086",
    "latitude": "19.0921761",
    "longitude": "72.910488"
  },
  {
    "name": "Suritex Pvt Ltd - Electronic Waste Recyclers",
    "address": "Admn Office 5&6, Zal Complex, Residency Rd, opp. SFS school, above Roast café, Sadar, Nagpur, Maharashtra 440001",
    "latitude": "21.1603178",
    "longitude": "79.076848"
  },
  {
    "name": "S. N Computer Scrap - EWaste Recycling, Computer Scrap Dealers in Mumbai",
    "address": "Gala No. 8, Khadi, Shiv Shakti Comp, 3, 90 Feet Rd, Netaji Nagar, Kurla West, Saki Naka, Mumbai, Maharashtra 400072",
    "latitude": "19.1023608",
    "longitude": "72.885727"
  },
  {
    "name": "SAS Tech E-Waste Recycling Solutions",
    "address": "3HGV+C44, Ratangarh, Rajasthan 331022",
    "latitude": "28.0760672",
    "longitude": "74.590237"
  },
  {
    "name": "ECS Environment Pvt Ltd.",
    "address": "The First Besides, Itc Narmada, ECS Corporate House, B 02, Hotel, Vastrapur, Ahmedabad, Gujarat 380015",
    "latitude": "23.0295161",
    "longitude": "72.527342"
  },
  {
    "name": "ECS e Waste Recycle Plant",
    "address": "24, Virpur Rd, Vautha, Gujarat 387810",
    "latitude": "22.6572626",
    "longitude": "72.525433"
  },
  {
    "name": "Nagraj E-waste Recycling",
    "address": "Flat No.004, Om Maa Bamleshwari App, near Patidar Bhavan, Queta Colony, Bagadganj, Nagpur, Maharashtra 440008",
    "latitude": "21.1533011",
    "longitude": "79.116530"
  },
  {
    "name": "Prometheus Recycling Private Limited - Plant",
    "address": "#800 #801, Land No 786/4, 799/1, Dilawar Ka Pura, Susera, Madhya Pradesh 474005",
    "latitude": "26.3196132",
    "longitude": "78.165614"
  },
  {
    "name": "Swach Enviro E Waste India Pvt Ltd",
    "address": "Metro Pillar No-383, No-204, C-9/62, Second Floor, 84, opp. Saroj Hospital, Delhi 110085",
    "latitude": "28.7059631",
    "longitude": "77.1257304"
  },
  {
    "name": "Scrap App",
    "address": "13, Basement Office, Mohan Dev Building, Tolstoy Road, Connaught Place, New Delhi, Delhi 110001",
    "latitude": "28.5474956",
    "longitude": "77.2164538"
  },
  {
    "name": "Post Graduate Recycling Services #scrap car buyer#junk buyer#ELV#car crushing#disposal junk# dead car#mayapuri#9319206659",
    "address": "Maya puri, Delhi 110064",
    "latitude": "28.6302145",
    "longitude": "77.098327"
  },
  {
    "name": "Dya Computer Scrap Dealer Noida-E Waste Scrap Buyers In Delhi",
    "address": "Mata, colony near, Hoshiyarpur, Sector 52, Noida, Uttar Pradesh 201301",
    "latitude": "28.5832174",
    "longitude": "77.3642346"
  },
  {
    "name": "Bharat Recycling Pvt Ltd",
    "address": "119/1 Gali No. 19, Main Rd, North Ghonda, Delhi, 110053",
    "latitude": "28.7045529",
    "longitude": "77.2721227"
  },
  {
    "name": "Ecosense E Waste Management LLP",
    "address": "Ground Floor, E, 36, Chaura Raghunathpur, Raghunathpur, Sector 22, Noida, Uttar Pradesh 201301",
    "latitude": "28.5937543",
    "longitude": "77.3417069"
  },
  {
    "name": "Nirvana Recycling Pvt. Ltd.",
    "address": "124, Functional Indl. Estate, Patparganj, Delhi, 110092",
    "latitude": "28.6347999",
    "longitude": "77.2633712"
  },
  {
    "name": "e-Swachh - Ek Samadhan",
    "address": "A, 3, Christian Colony Rd, Patel Chest, DU, University Enclave, Delhi, 110007",
    "latitude": "28.6922761",
    "longitude": "77.2040023"
  },
  {
    "name": "Green Leaf Recycling",
    "address": "59, Shakuntala Apartments, 307, Nehru Place, New Delhi, Delhi 110020",
    "latitude": "28.549193",
    "longitude": "77.087874"
  },
  {
    "name": "AVV E Waste Reprocess Pvt Ltd - e waste recycling in pan india (deals in all types of electrical waste)",
    "address": "11, Nehru Ground, New Industrial Twp 1, New Industrial Township, Faridabad, Haryana 121002",
    "latitude": "28.3905963",
    "longitude": "77.2998896"
  },
  {
    "name": "ScrapUncle - The Online Kabadiwala",
    "address": "Swapeco Solutions Private Limited IIIT Delhi Incubation Center, Okhla Phase III, Delhi 110021",
    "latitude": "28.546279",
    "longitude": "77.270874"
  },
  {
    "name": "BRP Infotech Pvt Ltd",
    "address": "Plot no 535, C Complex, D.S.I.D, Patparganj Industrial Area, Patparganj, New Delhi, Delhi, 110092",
    "latitude": "28.6376569",
    "longitude": "77.3073296"
  },
  {
    "name": "Gupta Plastic Scrap",
    "address": "Rajiv Nagar, Dilshad Garden, Delhi, Uttar Pradesh 201005",
    "latitude": "28.6956607",
    "longitude": "77.3270026"
  },
  {
    "name": "Karma Ecotech Limited (EcoEx)",
    "address": "Hansalaya Building, 5C, 5th floor, Barakhamba Rd, New Delhi, Delhi 110001",
    "latitude": "28.6287472",
    "longitude": "77.2231378"
  },
  {
    "name": "Attero Recycling Pvt. Ltd.",
    "address": "A-72A, Block A, Sector 64, Noida, Uttar Pradesh 201301",
    "latitude": "28.6117726",
    "longitude": "77.3718502"
  },
  {
    "name": "MT SCRAP.COM",
    "address": "Devli, Sangam Vihar, New Delhi, Delhi 110080",
    "latitude": "28.4965944",
    "longitude": "77.2180312"
  },
  {
    "name": "Square pins are ads",
    "address": "",
    "latitude": "28.4971914",
    "longitude": "77.0341546"
  },
  {
    "name": "Ecoverva",
    "address": "Unit No.132, 1st Floor, DLF Star Tower, Sector 30, Gurugram, Haryana 122001",
    "latitude": "28.4603762",
    "longitude": "76.9857877"
  }
]